AreaCode,name,type_school,type_nursery,address,shelter_type,capacity,レベル,lat,lon,id,target,id_mod,depth,duration,edge_id
13102.0,日本橋公会堂集会室,0,0,東京都中央区日本橋蛎殻町1-31-1,拠点避難所,61,1.0,35.682486,139.784321,7.0,1.0,1.0,2.45,656.8333333,95396785#1
13102.0,日本橋社会教育会館,0,0,東京都中央区日本橋人形町1-1-17,地域福祉避難所,15,1.0,35.684771,139.781394,7.0,1.0,1.0,1.48,655.8166667,667863959#0
13108.0,深川北子ども家庭支援センター,0,0,東京都江東区高橋14-6,避難所,22,3.0,35.68592739,139.7991314,7.0,1.0,1.0,1.37,36.68333333,-30955664#0
13108.0,中村中学高等学校,0,0,東京都江東区清澄2-3-15,避難所,58,1.0,35.68146,139.796599,7.0,1.0,1.0,0.17,0.0,172365194#1
13108.0,白河かもめ保育園,0,1,東京都江東区白河1-5-1-101,避難所,20,1.0,35.683256,139.799912,7.0,1.0,1.0,1.05,21.63333333,-168683414#0
13108.0,白河保育園,0,1,東京都江東区白河1-7-1,避難所,16,1.0,35.683155,139.799683,7.0,1.0,1.0,1.05,21.63333333,154971367#0
13101.0,都立一橋高校,1,0,東京都千代田区東神田1-12-13,指定避難所,189,1.0,35.69457,139.781071,7.0,1.0,1.0,1.41,658.0666667,31046466#0
13102.0,久松小学校,1,0,東京都中央区久松町7-2,避難所,187,1.0,35.688958,139.784559,7.0,1.0,1.0,1.45,655.5,94094796#6
13102.0,日本橋小学校,1,0,東京都中央区人形町1-1-17,避難所,148,1.0,35.684848,139.781377,7.0,1.0,1.0,1.48,655.8166667,95282564#1
13102.0,日本橋中学校,1,0,東京都中央区東日本橋1-10-1,避難所,201,1.0,35.692459,139.787071,7.0,1.0,1.0,1.46,657.6833333,-157214540#2
13102.0,有馬小学校,1,0,東京都中央区蛎殻町2-10-23,避難所,211,1.0,35.683533,139.787635,7.0,1.0,1.0,2.7,657.3333333,35216007#0
13106.0,旧福井中学校,1,0,東京都台東区浅草橋1-22-15,避難所,189,3.0,35.69791572,139.7842098,7.0,1.0,1.0,1.78,659.55,597967648
13107.0,両国小学校,1,0,東京都墨田区両国4-26-6,避難所,171,1.0,35.693792,139.795182,7.0,1.0,1.0,1.62,43.31666667,-104107450
13107.0,両国中学校,1,0,東京都墨田区横網1-8-1,避難所,192,1.0,35.697653,139.795571,7.0,1.0,1.0,0.71,10.68333333,157050773#0
13107.0,緑小学校,1,0,東京都墨田区緑2-12-12,避難所,136,1.0,35.694098,139.801154,7.0,1.0,1.0,0.94,17.3,103751347#12
13108.0,深川小学校,1,0,東京都江東区高橋14-10,避難所,120,1.0,35.686043,139.799572,7.0,1.0,1.0,1.37,36.68333333,30955664#0
13108.0,八名川小学校,1,0,東京都江東区新大橋3-1-15,避難所,177,1.0,35.687016,139.795684,7.0,1.0,1.0,0.0,0.0,1080759176#4
13102.0,月島児童館,0,1,東京都中央区月島4-1-1,拠点避難所,146,1.0,35.66199,139.782293,8.0,1.0,2.0,0.0,0.0,131025957#2
13102.0,月島社会教育会館,0,0,東京都中央区月島4-1-1,地域福祉避難所,22,1.0,35.661999,139.782189,8.0,1.0,2.0,0.0,0.0,335539645#0
13102.0,新川区民館,0,0,東京都中央区新川1-26-1,拠点避難所,43,1.0,35.676414,139.783724,8.0,1.0,2.0,1.13,653.2333333,46151435#6
13102.0,佃児童館シニアセンター,0,1,東京都中央区佃1-11-1,地域福祉避難所,27,3.0,35.668906,139.784737,8.0,1.0,2.0,0.0,0.0,285664494#0
13102.0,特別養護老人ホーム「マイホーム新川」,0,0,東京都中央区新川2-27-3,広域福祉避難所,4,1.0,35.6731,139.783821,8.0,1.0,2.0,0.7,14.38333333,243800062
13108.0,ちどり幼稚園,0,1,東京都江東区古石場1-11-11,避難所,11,1.0,35.669184,139.794848,8.0,1.0,2.0,0.25,0.0,162173421#1
13108.0,塩浜保育園,0,1,東京都江東区塩浜1-3-10,避難所,25,1.0,35.66349,139.800792,8.0,1.0,2.0,0.0,0.0,30998350#1
13108.0,古石場福祉会館古石場児童館,0,1,東京都江東区古石場1-11-1,避難所,17,3.0,35.6689449,139.7952625,8.0,1.0,2.0,0.25,0.0,-162173421#1
13108.0,古石場文化センター,0,0,東京都江東区古石場2-13-2,避難所,74,1.0,35.666926,139.799142,8.0,1.0,2.0,0.29,0.0,-151175267#1
13108.0,古石場保育園,0,1,東京都江東区古石場2-14-1-102,避難所,25,4.0,35.66700309,139.7998076,8.0,1.0,2.0,0.29,0.0,151175230
13108.0,深川スポーツセンター,0,0,東京都江東区越中島1-2-18,避難所,170,1.0,35.670459,139.79171,8.0,1.0,2.0,0.25,0.0,261326133#0
13108.0,深川一丁目保育園,0,1,東京都江東区深川1-6-15-101,避難所,14,1.0,35.677266,139.796376,8.0,1.0,2.0,1.3,37.65,-220552217#0
13108.0,深川図書館,0,0,東京都江東区清澄3-3-39,避難所,48,1.0,35.679154,139.796721,8.0,1.0,2.0,0.78,13.41666667,22562407#1
13108.0,深川老人福祉センター平野児童館,0,1,東京都江東区平野1-2-3,避難所,47,1.0,35.678433,139.798654,8.0,1.0,2.0,1.16,28.28333333,-120525569#1
13108.0,第三商業高等学校,0,0,東京都江東区越中島3-3-1,避難所,87,1.0,35.662879,139.795709,8.0,1.0,2.0,0.18,0.0,174022662
13108.0,東京海洋大学,0,0,東京都江東区越中島2-1-6,避難所,112,1.0,35.667851,139.791765,8.0,1.0,2.0,0.4,0.0,367848147#4
13102.0,中央小学校,1,0,東京都中央区湊1-4-1,避難所,85,1.0,35.672294,139.778738,8.0,1.0,2.0,0.62,12.43333333,97685712#0
13102.0,佃中学校,1,0,東京都中央区佃2-3-2,避難所,380,1.0,35.667989,139.784987,8.0,1.0,2.0,0.0,0.0,257357821#4
13102.0,佃島小学校,1,0,東京都中央区佃2-3-1,避難所,320,1.0,35.668572,139.784599,8.0,1.0,2.0,0.0,0.0,296689963#2
13102.0,明正小学校,1,0,東京都中央区新2-13-4,避難所,120,1.0,35.676016,139.782126,8.0,1.0,2.0,1.12,652.7,97671395#5
13108.0,越中島小学校,1,0,東京都江東区越中島3-6-38,避難所,145,1.0,35.666073,139.79632,8.0,1.0,2.0,0.28,0.0,261328669
13108.0,深川第三中学校,1,0,東京都江東区越中島3-7-1,避難所,207,1.0,35.666768,139.795987,8.0,1.0,2.0,0.28,0.0,168663974#4
13108.0,深川第二中学校,1,0,東京都江東区冬木22-10,避難所,178,1.0,35.676461,139.800626,8.0,1.0,2.0,1.16,28.28333333,-120528221#0
13108.0,数矢小学校,1,0,東京都江東区富岡1-18-7,避難所,184,1.0,35.672823,139.800014,8.0,1.0,2.0,0.98,23.23333333,-152333576#0
13108.0,明治小学校,1,0,東京都江東区深川2-17-26,避難所,194,1.0,35.676128,139.797987,8.0,1.0,2.0,1.3,37.65,1057054850#1
13108.0,臨海小学校,1,0,東京都江東区門前仲町1-1-6,避難所,152,1.0,35.672489,139.793182,8.0,1.0,2.0,0.8,16.33333333,-133288284#4
13102.0,月島社会教育会館晴海分館「アートはるみ」,0,0,東京都中央区晴海1-4-1,地域福祉避難所,19,1.0,35.658869,139.785619,9.0,1.0,3.0,0.0,0.0,31283076#0
13102.0,特別養護老人ホーム「マイホームはるみ」,0,0,東京都中央区晴海1-5-1,広域福祉避難所,9,1.0,35.659962,139.78471,9.0,1.0,3.0,0.0,0.0,-46149196
13108.0,芝浦工業大学（豊洲キャンパス）,0,0,東京都江東区豊洲3-7-5,避難所,121,1.0,35.66093,139.795435,9.0,1.0,3.0,0.0,0.0,1028258369#0
13108.0,東雲児童館,0,1,東京都江東区東雲2-4-4-102,避難所,35,1.0,35.643937,139.799265,9.0,1.0,3.0,0.0,0.0,44883380#1
13108.0,東雲保育園,0,1,東京都江東区東雲1-8-5-101,避難所,24,1.0,35.644937,139.800237,9.0,1.0,3.0,0.0,0.0,-1027009172#1
13108.0,豊洲子ども家庭支援センター,0,0,東京都江東区豊洲5-5-1-201,避難所,9,3.0,35.65363,139.79607,9.0,1.0,3.0,0.0,0.0,-31283137#1
13108.0,豊洲文化センター,0,0,東京都江東区豊洲2-2-18,避難所,107,1.0,35.653872,139.794924,9.0,1.0,3.0,0.0,0.0,1028619481#0
13108.0,豊洲保育園,0,1,東京都江東区豊洲4-5-6-101,避難所,32,1.0,35.654713,139.799403,9.0,1.0,3.0,0.0,0.0,-100102319#1
13102.0,月島第一小学校,1,0,東京都中央区月島4-15-1,避難所,227,1.0,35.660851,139.780266,9.0,1.0,3.0,0.0,0.0,269150833#0
13102.0,月島第三小学校,1,0,東京都中央区晴海1-4-1,避難所,294,1.0,35.658879,139.785626,9.0,1.0,3.0,0.0,0.0,-31283076#0
13102.0,晴海中学校,1,0,東京都中央区晴海1-5-3,避難所,296,1.0,35.659546,139.784849,9.0,1.0,3.0,0.0,0.0,46149188
13108.0,深川第五中学校,1,0,東京都江東区豊洲4-11-18,避難所,246,1.0,35.652677,139.799157,9.0,1.0,3.0,0.0,0.0,1028619486#0
13108.0,豊洲小学校,1,0,東京都江東区豊洲4-4-4,避難所,355,1.0,35.654186,139.798764,9.0,1.0,3.0,0.0,0.0,30842114#0
13108.0,豊洲北小学校,1,0,東京都江東区豊洲3-6-1,避難所,264,3.0,35.658463,139.797824,9.0,1.0,3.0,0.0,0.0,-22823721#9
13108.0,アンフェリシオン,0,0,東京都江東区亀戸1-43-22,避難所,36,3.0,35.69679,139.82239,12.0,1.0,4.0,2.05,665.1666667,70330619#2
13108.0,スポーツ会館,0,0,東京都江東区北砂1-2-9,避難所,242,1.0,35.684474,139.821382,12.0,1.0,4.0,1.51,42.86666667,702450013
13108.0,つばめ幼稚園,0,1,東京都江東区扇橋3-20-13-101,避難所,11,1.0,35.684321,139.818957,12.0,1.0,4.0,2.23,661.75,70364448#1
13108.0,猿江保育園,0,1,東京都江東区猿江1-8-10,避難所,7,1.0,35.685405,139.813513,12.0,1.0,4.0,1.35,35.73333333,71470210#0
13108.0,科学技術高等学校,0,0,東京都江東区大島1-2-31,避難所,71,1.0,35.687127,139.822512,12.0,1.0,4.0,3.07,666.7166667,-154253469#2
13108.0,亀戸児童館,0,1,東京都江東区亀戸2-1-19,避難所,15,4.0,35.69778942,139.8216681,12.0,1.0,4.0,2.66,666.85,98593775#1
13108.0,元加賀幼稚園,0,1,東京都江東区白河4-9-17,避難所,16,1.0,35.682738,139.807598,12.0,1.0,4.0,0.26,0.0,71470206#14
13108.0,江東公会堂（ティアラこうとう）,0,0,東京都江東区住吉2-28-36,避難所,80,1.0,35.688496,139.819501,12.0,1.0,4.0,0.28,0.0,1057527744#3
13108.0,児童会館,0,0,東京都江東区住吉1-9-8,避難所,62,1.0,35.687571,139.812347,12.0,1.0,4.0,2.03,50.93333333,71470210#1
13108.0,森下児童館,0,1,東京都江東区森下3-14-6,避難所,9,4.0,35.6859682,139.8029656,12.0,1.0,4.0,1.74,45.28333333,-156919890#7
13108.0,森下文化センター,0,0,東京都江東区森下3-12-17,避難所,123,1.0,35.685151,139.802145,12.0,1.0,4.0,1.52,40.83333333,156919890#6
13108.0,森下保育園,0,1,東京都江東区森下3-14-6,避難所,15,1.0,35.685932,139.80296,12.0,1.0,4.0,1.74,45.28333333,168683397#1
13108.0,男女共同参画推進センター,0,0,東京都江東区扇橋3-22-2,避難所,64,1.0,35.68413,139.820162,12.0,1.0,4.0,0.43,0.0,-23288277#0
13108.0,北砂保育園,0,1,東京都江東区北砂1-1-4-101,避難所,12,1.0,35.682349,139.821734,12.0,1.0,4.0,1.4,37.73333333,24294870#9
13108.0,墨田工業高等学校,0,0,東京都江東区森下5-1-7,避難所,74,1.0,35.684905,139.807015,12.0,1.0,4.0,0.26,0.0,228090236
13108.0,毛利保育園,0,1,東京都江東区毛利2-1-14,避難所,16,1.0,35.690654,139.816207,12.0,1.0,4.0,2.24,53.68333333,59262038#0
13107.0,菊川小学校,1,0,東京都墨田区立川4-12-15,避難所,158,1.0,35.69157,139.807653,12.0,1.0,4.0,1.82,46.6,-103761129#0
13107.0,竪川中学校,1,0,東京都墨田区亀沢4-11-15,避難所,164,1.0,35.696847,139.805708,12.0,1.0,4.0,2.07,51.56666667,436048951#0
13107.0,中和小学校,1,0,東京都墨田区菊川1-18-10,避難所,142,1.0,35.690209,139.802737,12.0,1.0,4.0,1.77,45.78333333,103760989#0
13108.0,元加賀小学校,1,0,東京都江東区白河4-3-19,避難所,152,1.0,35.682238,139.808347,12.0,1.0,4.0,1.67,49.48333333,-71470206#14
13108.0,深川第一中学校,1,0,東京都江東区森下4-9-22,避難所,94,1.0,35.685266,139.805598,12.0,1.0,4.0,1.94,48.46666667,156919890#4
13108.0,深川第七中学校,1,0,東京都江東区毛利1-14-1,避難所,157,1.0,35.691348,139.813513,12.0,1.0,4.0,2.1,52.03333333,1256063070#1
13108.0,扇橋小学校,1,0,東京都江東区石島18-5,避難所,130,1.0,35.681461,139.811958,12.0,1.0,4.0,2.66,661.9,71470213#2
13108.0,第三亀戸中学校,1,0,東京都江東区亀戸1-12-10,避難所,182,1.0,35.695042,139.821234,12.0,1.0,4.0,2.05,665.1666667,70509860#2
13108.0,東川小学校,1,0,東京都江東区住吉1-12-2,避難所,135,1.0,35.688543,139.812514,12.0,1.0,4.0,2.03,50.93333333,304727895#2
13108.0,毛利小学校,1,0,東京都江東区毛利2-2-2,避難所,109,1.0,35.691431,139.816291,12.0,1.0,4.0,2.09,51.96666667,71470195#3
13108.0,ホテルイースト２１東京,0,0,東京都江東区東陽6-3-2,避難所,130,3.0,35.67446771,139.8146301,13.0,1.0,5.0,1.93,661.55,58209112
13108.0,みどり幼稚園,0,1,東京都江東区南砂2-3-3-101,避難所,25,4.0,35.67321151,139.822956,13.0,1.0,5.0,2.73,663.45,-1060224075#1
13108.0,教育センター東陽図書館,0,0,東京都江東区東陽2-3-6,避難所,100,1.0,35.667193,139.817133,13.0,1.0,5.0,0.4,0.0,286703477#1
13108.0,江東区文化センター,0,0,東京都江東区東陽4-11-3,避難所,144,1.0,35.672473,139.818337,13.0,1.0,5.0,3.22,663.3166667,58209119#0
13108.0,深川高等学校,0,0,東京都江東区東陽5-32-19,避難所,56,1.0,35.671129,139.815513,13.0,1.0,5.0,3.57,663.1833333,115591852#0
13108.0,深川北スポーツセンター,0,0,東京都江東区平野3-2-20,避難所,81,1.0,35.676889,139.804942,13.0,1.0,5.0,1.66,51.01666667,-228076693#0
13108.0,大江戸高等学校,0,0,東京都江東区千石3-2-11,避難所,104,1.0,35.679324,139.818052,13.0,1.0,5.0,2.94,662.3166667,-228514822#0
13108.0,東陽区民館、東陽子ども家庭支援センター,0,0,東京都江東区東陽3-1-2,避難所,32,3.0,35.66856,139.808569,13.0,1.0,5.0,0.93,23.58333333,-31053515#0
13108.0,東陽児童館,0,1,東京都江東区東陽5-16-13,避難所,18,4.0,35.6713779,139.811791,13.0,1.0,5.0,2.67,662.5166667,228076698#3
13108.0,東陽福祉会館,0,0,東京都江東区東陽6-2-17,避難所,38,1.0,35.674714,139.812363,13.0,1.0,5.0,0.0,0.0,986505886#2
13108.0,東陽保育園,0,1,東京都江東区東陽3-22-1-101,避難所,23,1.0,35.669184,139.813707,13.0,1.0,5.0,2.91,662.8,1028619491
13108.0,南砂児童館,0,1,東京都江東区南砂2-3-17,避難所,20,4.0,35.67115513,139.8231258,13.0,1.0,5.0,2.85,663.1,286703487#3
13108.0,南砂第三保育園,0,1,東京都江東区南砂2-3-3-102,避難所,19,1.0,35.673156,139.822956,13.0,1.0,5.0,2.73,663.45,1060224075#1
13108.0,南砂第四保育園,0,1,東京都江東区南砂2-3-4-101,避難所,18,1.0,35.67199,139.822929,13.0,1.0,5.0,2.73,663.45,286703487#1
13108.0,南砂第二保育園,0,1,東京都江東区南砂2-3-1-101,避難所,18,4.0,35.67031035,139.8219744,13.0,1.0,5.0,2.85,663.1,168663960#4
13108.0,旧南砂西小学校,1,0,東京都江東区南砂2-3-13,避難所,152,3.0,35.67199617,139.8212074,13.0,1.0,5.0,3.32,663.7,-746533321#3
13108.0,深川第四中学校,1,0,東京都江東区千石1-12-12,避難所,156,1.0,35.678933,139.812458,13.0,1.0,5.0,1.69,50.78333333,-228514822#7
13108.0,深川第八中学校,1,0,東京都江東区塩浜2-21-14,避難所,262,1.0,35.664796,139.811957,13.0,1.0,5.0,0.0,0.0,184314030
13108.0,深川第六中学校,1,0,東京都江東区平野3-6-13,避難所,102,1.0,35.678794,139.80557,13.0,1.0,5.0,2.0,660.6833333,184315497#2
13108.0,川南小学校,1,0,東京都江東区千石2-9-12,避難所,113,1.0,35.679794,139.816763,13.0,1.0,5.0,3.23,662.4666667,103945933#2
13108.0,第四砂町小学校,1,0,東京都江東区南砂2-13-18,避難所,99,1.0,35.674878,139.822068,13.0,1.0,5.0,3.96,663.9833333,-1060224075#0
13108.0,第二南砂中学校,1,0,東京都江東区南砂1-2-18,避難所,136,1.0,35.678017,139.821318,13.0,1.0,5.0,1.7,44.98333333,742072640
13108.0,東陽小学校,1,0,東京都江東区東陽3-27-12,避難所,204,1.0,35.670684,139.81554,13.0,1.0,5.0,2.91,662.8,744266431#0
13108.0,東陽中学校,1,0,東京都江東区東陽2-1-8,避難所,140,1.0,35.666907,139.814013,13.0,1.0,5.0,0.11,0.0,31303247#2
13108.0,南陽小学校,1,0,東京都江東区東陽2-1-20,避難所,151,1.0,35.668518,139.81379,13.0,1.0,5.0,0.11,0.0,168663961#3
13108.0,平久小学校,1,0,東京都江東区木場1-2-2,避難所,170,1.0,35.668101,139.802292,13.0,1.0,5.0,1.62,660.0166667,-168663981
13108.0,塩崎保育園,0,1,東京都江東区塩浜2-6-3,避難所,38,1.0,35.660935,139.808624,14.0,1.0,6.0,0.0,0.0,30998553
13108.0,枝川区民館,0,0,東京都江東区枝川3-6-16,避難所,43,1.0,35.658488,139.810303,14.0,1.0,6.0,0.0,0.0,368083811#2
13108.0,枝川幼稚園,0,1,東京都江東区枝川3-4-1-101,避難所,27,1.0,35.659463,139.808624,14.0,1.0,6.0,0.0,0.0,-31133931
13108.0,辰巳児童館,0,1,東京都江東区辰巳1-1-36,避難所,44,4.0,35.64757873,139.8089391,14.0,1.0,6.0,0.0,0.0,-1056328000
13108.0,辰巳第三保育園,0,1,東京都江東区辰巳1-10-81-101,避難所,33,1.0,35.648187,139.811374,14.0,1.0,6.0,0.0,0.0,1056330391
13108.0,辰巳第二保育園,0,1,東京都江東区辰巳1-10-65-101,避難所,24,1.0,35.648964,139.810708,14.0,1.0,6.0,0.0,0.0,1056328001
13108.0,潮見保育園,0,1,東京都江東区潮見1-29-15-101,避難所,40,1.0,35.655991,139.814707,14.0,1.0,6.0,0.0,0.0,174022686#2
13108.0,豊洲児童館,0,1,東京都江東区豊洲4-10-4-111,避難所,40,4.0,35.65401481,139.802673,14.0,1.0,6.0,0.0,0.0,31237829#3
13108.0,枝川小学校,1,0,東京都江東区枝川3-5-3,避難所,355,1.0,35.659602,139.80943,14.0,1.0,6.0,0.0,0.0,-429870959#3
13108.0,第二辰巳小学校,1,0,東京都江東区辰巳1-1-22,避難所,211,1.0,35.648353,139.808458,14.0,1.0,6.0,0.0,0.0,44884344#0
13108.0,辰巳小学校,1,0,東京都江東区辰巳1-11-1,避難所,236,1.0,35.646659,139.810041,14.0,1.0,6.0,0.0,0.0,174405496#0
13108.0,辰巳中学校,1,0,東京都江東区辰巳1-10-57,避難所,249,1.0,35.646826,139.811347,14.0,1.0,6.0,0.0,0.0,648435889#0
13108.0,わかば保育園,0,1,東京都江東区大島9-7-8-101,避難所,20,1.0,35.693987,139.844231,17.0,1.0,7.0,1.47,40.53333333,46655814
13108.0,亀戸文化センター,0,0,東京都江東区亀戸2-19-1,避難所,67,1.0,35.697645,139.82452,17.0,1.0,7.0,3.07,667.6,98593807
13108.0,砂町文化センター、砂町図書館,0,0,東京都江東区北砂5-1-7,避難所,104,1.0,35.680447,139.832031,17.0,1.0,7.0,5.21,671.05,-23243742
13108.0,城東高等学校,0,0,東京都江東区大島3-22-1,避難所,62,1.0,35.692876,139.829372,17.0,1.0,7.0,3.51,667.3,-99702562#1
13108.0,青少年センター,0,0,東京都江東区亀戸7-41-16,避難所,58,3.0,35.696823,139.837394,17.0,1.0,7.0,4.36,669.55,154458448#2
13108.0,大島子ども家庭支援センター,0,0,東京都江東区大島4-1-37,避難所,12,3.0,35.68739361,139.8281004,17.0,1.0,7.0,3.24,666.8666667,669100015#0
13108.0,大島保育園,0,1,東京都江東区大島5-53-1-101,避難所,17,1.0,35.686433,139.838343,17.0,1.0,7.0,2.81,666.6333333,70936546#0
13108.0,中央学院大学中央高等学校,0,0,東京都江東区亀戸7-65-12,避難所,63,1.0,35.695859,139.839875,17.0,1.0,7.0,4.77,669.7833333,-59525014
13108.0,東大島文化センター,0,0,東京都江東区大島8-33-9,避難所,71,1.0,35.689763,139.842385,17.0,1.0,7.0,4.59,668.2333333,208649499#0
13108.0,亀戸中学校,1,0,東京都江東区亀戸9-2-2,避難所,100,1.0,35.695293,139.841815,17.0,1.0,7.0,4.77,669.7833333,59525014
13108.0,亀高小学校,1,0,東京都江東区北砂5-20-16,避難所,115,1.0,35.685044,139.834232,17.0,1.0,7.0,4.19,666.3166667,88083360
13108.0,旧第三大島中学校,1,0,東京都江東区大島1-20-20,避難所,165,3.0,35.68563396,139.824988,17.0,1.0,7.0,2.1,664.2166667,70794980#1
13108.0,砂町中学校,1,0,東京都江東区北砂6-16-28,避難所,178,1.0,35.685238,139.837177,17.0,1.0,7.0,2.94,665.2,156575055#11
13108.0,小名木川小学校,1,0,東京都江東区北砂5-22-10,避難所,124,1.0,35.682405,139.831094,17.0,1.0,7.0,4.42,665.9833333,-313849721#0
13108.0,大島西中学校,1,0,東京都江東区大島4-1-23,避難所,96,1.0,35.686405,139.8279,17.0,1.0,7.0,3.24,666.8666667,70794980#3
13108.0,大島中学校,1,0,東京都江東区大島8-12-22,避難所,84,1.0,35.68671,139.839815,17.0,1.0,7.0,3.93,667.6833333,70936546#1
13108.0,大島南央小学校,1,0,東京都江東区大島4-18-5,避難所,120,3.0,35.687377,139.831538,17.0,1.0,7.0,4.65,669.9666667,154253461#1
13108.0,第一大島小学校,1,0,東京都江東区大島2-41-4,避難所,106,1.0,35.68996,139.825539,17.0,1.0,7.0,3.38,666.9666667,1057527740#3
13108.0,第五大島小学校,1,0,東京都江東区大島8-40-13,避難所,88,1.0,35.688127,139.844759,17.0,1.0,7.0,4.6,668.1833333,208649512#0
13108.0,第三大島小学校,1,0,東京都江東区大島9-5-3,避難所,139,1.0,35.69243,139.845197,17.0,1.0,7.0,3.71,667.55,-46655815#1
13108.0,第四砂町中学校,1,0,東京都江東区北砂5-20-17,避難所,128,1.0,35.684822,139.831677,17.0,1.0,7.0,4.25,666.65,-70794980#5
13108.0,第四大島小学校,1,0,東京都江東区大島6-7-8,避難所,130,1.0,35.691154,139.834399,17.0,1.0,7.0,3.96,667.7833333,196629586#2
13108.0,第二亀戸小学校,1,0,東京都江東区亀戸6-36-1,避難所,83,1.0,35.695515,139.830094,17.0,1.0,7.0,4.05,669.0666667,70330617#1
13108.0,第二大島小学校,1,0,東京都江東区大島3-16-2,避難所,92,1.0,35.689988,139.829733,17.0,1.0,7.0,4.27,667.85,70794981#0
13108.0,第二大島中学校,1,0,東京都江東区大島3-27-18,避難所,91,1.0,35.691654,139.831538,17.0,1.0,7.0,3.62,667.5333333,154253454#1
13108.0,第六砂町小学校,1,0,東京都江東区北砂6-26-6,避難所,81,1.0,35.682183,139.83851,17.0,1.0,7.0,4.63,666.4333333,-871138585#3
13108.0,東砂小学校,1,0,東京都江東区東砂2-12-14,避難所,111,1.0,35.683378,139.844343,17.0,1.0,7.0,4.05,666.0166667,-161392635#0
13108.0,北砂小学校,1,0,東京都江東区北砂1-3-36,避難所,124,1.0,35.683183,139.823651,17.0,1.0,7.0,2.88,665.5333333,24294873#0
13108.0,江東図書館,0,0,東京都江東区南砂6-7-52,避難所,4,1.0,35.671795,139.834053,18.0,1.0,8.0,4.84,670.85,693896095
13108.0,城東老人福祉センター,0,0,東京都江東区北砂4-20-12,避難所,20,1.0,35.67742628,139.8318208,18.0,1.0,8.0,5.12,671.0,23243740
13108.0,東高等学校,0,0,東京都江東区東砂7-19-24,避難所,105,1.0,35.673684,139.837233,18.0,1.0,8.0,2.46,662.8833333,-34078514
13108.0,東砂スポーツセンター,0,0,東京都江東区東砂4-24-1,避難所,59,1.0,35.679187,139.839444,18.0,1.0,8.0,4.57,666.2833333,-161392518#3
13108.0,東砂第四保育園,0,1,東京都江東区東砂7-17-35-101,避難所,16,1.0,35.674073,139.838482,18.0,1.0,8.0,2.46,662.8833333,1057054858#1
13108.0,東砂福祉会館、東砂児童館,0,1,東京都江東区東砂7-15-3,避難所,41,1.0,35.674629,139.839705,18.0,1.0,8.0,2.46,662.8833333,-46655426#1
13108.0,南砂子ども家庭支援センター,0,0,東京都江東区南砂3-14-1-101,避難所,25,3.0,35.66885103,139.8316956,18.0,1.0,8.0,0.0,0.0,88954527#2
13108.0,南砂第一保育園,0,1,東京都江東区南砂4-4-1-102,避難所,15,1.0,35.674628,139.828539,18.0,1.0,8.0,2.54,663.6666667,1057050913#0
13108.0,砂町小学校,1,0,東京都江東区北砂4-13-23,避難所,110,1.0,35.677406,139.829011,18.0,1.0,8.0,4.86,670.8166667,-228056325#4
13108.0,第五砂町小学校,1,0,東京都江東区東砂8-11-5,避難所,106,1.0,35.667491,139.839288,18.0,1.0,8.0,4.97,671.1333333,185216952
13108.0,第三砂町小学校,1,0,東京都江東区南砂6-3-13,避難所,148,4.0,35.672656,139.833233,18.0,1.0,8.0,4.99,670.6,154083062
13108.0,第三砂町中学校,1,0,東京都江東区南砂3-10-3,避難所,182,4.0,35.669796,139.830067,18.0,1.0,8.0,2.81,663.8666667,88954527#0
13108.0,第七砂町小学校,1,0,東京都江東区東砂3-21-5,避難所,135,1.0,35.678934,139.84251,18.0,1.0,8.0,4.72,666.3333333,161392508
13108.0,第二砂町小学校,1,0,東京都江東区東砂7-17-30,避難所,220,1.0,35.674879,139.83876,18.0,1.0,8.0,2.46,662.8833333,-1057054858#1
13108.0,第二砂町中学校,1,0,東京都江東区東砂8-10-9,避難所,99,1.0,35.668352,139.839566,18.0,1.0,8.0,4.97,671.1333333,58672755#1
13108.0,南砂小学校,1,0,東京都江東区南砂2-3-21,避難所,120,1.0,35.671906,139.824984,18.0,1.0,8.0,3.44,663.9,-1301304519#2
13108.0,南砂中学校,1,0,東京都江東区南砂2-3-20,避難所,159,1.0,35.673351,139.823678,18.0,1.0,8.0,2.73,663.45,349459713#0
13101.0,ちよだパークサイドプラザ,0,0,東京都千代田区神田和泉町1,指定避難所、地区救援センター,136,3.0,35.699319,139.778599,1.0,0.0,10.0,2.09,660.5333333,-231524291#0
13101.0,昌平童夢館,0,0,東京都千代田区外神田3-4-7,指定避難所、地区救援センター,136,3.0,35.701152,139.769904,1.0,0.0,10.0,0.78,15.43333333,41519045#2
13105.0,湯島児童館,0,1,東京都文京区本郷3-10-18,避難所,15,4.0,35.70381782,139.7638097,1.0,0.0,10.0,0.0,0.0,-23443416#1
13105.0,湯島幼稚園,0,1,東京都文京区本郷3-10-18,避難所,15,1.0,35.703957,139.763599,1.0,0.0,10.0,0.0,0.0,149415593#0
13105.0,本郷児童館,0,1,東京都文京区本郷5-30-8,避難所,15,1.0,35.71165,139.758266,1.0,0.0,10.0,0.0,0.0,866351232#4
13106.0,台東一丁目区民館,0,0,東京都台東区台東1-25-5,避難所,136,1.0,35.701772,139.7779,1.0,0.0,10.0,2.64,661.6833333,89881861#1
13101.0,旧練成中学校,1,0,東京都千代田区外神田6-11-14,指定避難所,189,3.0,35.70421,139.770683,1.0,0.0,10.0,1.05,25.48333333,72463851#2
13105.0,旧元町小学校,1,0,東京都文京区本郷1-1-19,避難所,189,3.0,35.70288929,139.7578667,1.0,0.0,10.0,0.0,0.0,89419994
13105.0,湯島小学校,1,0,東京都文京区湯島2-28-14,避難所,189,1.0,35.70654,139.766432,1.0,0.0,10.0,0.0,0.0,89418359
13105.0,本郷小学校,1,0,東京都文京区本郷4-5-15,避難所,189,1.0,35.708095,139.758321,1.0,0.0,10.0,0.0,0.0,53208159#0
13105.0,本郷台中学校,1,0,東京都文京区本郷2-38-23,避難所,189,1.0,35.707012,139.75896,1.0,0.0,10.0,0.0,0.0,34998006#2
13106.0,御徒町台東中学校,1,0,東京都台東区台東4-13-16,避難所,189,1.0,35.706957,139.777515,1.0,0.0,10.0,2.6,661.8333333,89828155#1
13106.0,黒門小学校,1,0,東京都台東区上野1-16-20,避難所,189,1.0,35.706957,139.770987,1.0,0.0,10.0,0.58,8.233333333,85568120#4
13106.0,忍岡小学校,1,0,東京都台東区池之端2-1-22,避難所,189,1.0,35.713954,139.766834,1.0,0.0,10.0,0.0,0.0,-1127706328#0
13101.0,岩本町ほほえみプラザ,0,0,東京都千代田区岩本町2-15-3,指定避難所,136,3.0,35.694467,139.777894,2.0,0.0,11.0,1.53,658.1,682261299#1
13101.0,区立スポーツセンター,0,0,東京都千代田区内神田2-1-8,指定避難所,136,1.0,35.68917,139.767556,2.0,0.0,11.0,0.0,0.0,31050815#1
13101.0,高齢者センター,0,0,東京都千代田区神田神保町2-20,指定避難所、二次避難所,136,1.0,35.697124,139.756516,2.0,0.0,11.0,0.0,0.0,175994173#1
13101.0,神田さくら館,0,0,東京都千代田区神田司町2-16,指定避難所、地区救援センター,136,3.0,35.693486,139.76846,2.0,0.0,11.0,0.0,0.0,264021277#2
13102.0,十思スクエア,0,0,東京都中央区小伝馬町5-1,避難所,199,3.0,35.69087244,139.7769939,2.0,0.0,11.0,0.77,15.96666667,1196930229
13101.0,お茶の水小学校,1,0,東京都千代田区猿楽町1-1-1,指定避難所、地区救援センター,189,1.0,35.697347,139.760433,2.0,0.0,11.0,0.0,0.0,376098682#0
13101.0,旧今川中学校,1,0,東京都千代田区鍛冶町2-4-2,指定避難所,189,3.0,35.691698,139.773094,2.0,0.0,11.0,0.85,18.06666667,33637414
13101.0,神田一橋中学校,1,0,東京都千代田区一ツ橋2-6-14,指定避難所,189,1.0,35.694708,139.756822,2.0,0.0,11.0,0.0,0.0,262051128#0
13102.0,常盤小学校,1,0,東京都中央区本石町4-4-26,避難所,106,1.0,35.688459,139.770627,2.0,0.0,11.0,0.16,0.0,51933192
13102.0,介護老人保健施設「リハポート明石」,0,0,東京都中央区明石町1-6,広域福祉避難所,17,3.0,35.66942099,139.7766994,3.0,0.0,12.0,1.02,653.25,4848945#1
13102.0,京華スクエア（１、２階）,0,0,東京都中央区八丁堀3-17-9,避難所,117,3.0,35.67499636,139.775571,3.0,0.0,12.0,0.45,0.0,178988161#6
13102.0,京橋プラザ,0,0,東京都中央区銀座1-25-3,避難所,161,1.0,35.673246,139.771717,3.0,0.0,12.0,0.0,0.0,240392347#2
13102.0,教育センター,0,0,東京都中央区明石町12-1,広域福祉避難所,11,3.0,35.66652655,139.7769053,3.0,0.0,12.0,1.14,652.7333333,680781435#0
13102.0,築地社会教育会館,0,0,東京都中央区築地4-15-1,地域福祉避難所,49,1.0,35.666379,139.768151,3.0,0.0,12.0,0.0,0.0,-172598552#1
13102.0,福祉センター,0,0,東京都中央区明石町12-1,広域福祉避難所,26,1.0,35.666489,139.776905,3.0,0.0,12.0,1.14,652.7333333,-680781435#1
13103.0,生涯学習センター,0,0,東京都港区新橋3-16-3,避難所,134,3.0,35.66552162,139.7570912,3.0,0.0,12.0,0.0,0.0,139085561#0
13102.0,京橋築地小学校,1,0,東京都中央区築地2-13-1,避難所,206,1.0,35.667989,139.771405,3.0,0.0,12.0,1.43,653.4,95277521
13102.0,銀座中学校,1,0,東京都中央区銀座8-19-15,避難所,250,1.0,35.665628,139.764934,3.0,0.0,12.0,0.74,13.25,-69963032#0
13102.0,阪本小学校,1,0,東京都中央区兜町15-18,避難所,118,1.0,35.679738,139.77671,3.0,0.0,12.0,1.09,652.2833333,97671376#6
13102.0,城東小学校,1,0,東京都中央区八重洲2-2-2,避難所,112,1.0,35.679349,139.769211,3.0,0.0,12.0,0.05,0.0,98247389
13102.0,泰明小学校,1,0,東京都中央区銀座5-1-13,避難所,148,1.0,35.672433,139.761767,3.0,0.0,12.0,0.0,0.0,203301448
13102.0,明石小学校,1,0,東京都中央区明石町1-15,避難所,111,1.0,35.668683,139.77621,3.0,0.0,12.0,0.83,650.55,95274380
13102.0,ほっとプラザはるみ,0,0,東京都中央区晴海5-2-3,拠点避難所,45,3.0,35.6518051,139.7749436,4.0,0.0,13.0,0.0,0.0,36688988#4
13103.0,エコプラザ,0,0,東京都港区浜松町1-13-1,避難所,136,3.0,35.65879,139.756913,4.0,0.0,13.0,0.0,0.0,134923812#0
13102.0,月島第二小学校,1,0,東京都中央区勝どき1-12-2,避難所,259,1.0,35.660212,139.775822,4.0,0.0,13.0,0.0,0.0,46149025
13102.0,豊海小学校,1,0,東京都中央区勝どき6-6-2,避難所,182,1.0,35.654379,139.77285,4.0,0.0,13.0,0.0,0.0,46148742#1
13103.0,台場区民センター,0,0,東京都港区台場1-5-1,避難所,47,1.0,35.629892,139.77717,5.0,0.0,14.0,0.0,0.0,27241671#0
13103.0,港陽小・中学校,1,0,東京都港区台場1-1-5,避難所,537,1.0,35.633842,139.777236,5.0,0.0,14.0,0.0,0.0,27242140
13106.0,蔵前工業高等学校,0,0,東京都台東区蔵前1-3-57,避難所,136,1.0,35.700375,139.791793,6.0,0.0,15.0,0.88,17.83333333,395264629#0
13106.0,東上野区民館,0,0,東京都台東区東上野3-24-6,避難所,136,1.0,35.711293,139.779612,6.0,0.0,15.0,2.72,662.65,744419622#1
13106.0,忍岡高等学校,0,0,東京都台東区浅草橋5-1-24,避難所,136,3.0,35.700639,139.78251,6.0,0.0,15.0,3.05,662.1833333,89934445#4
13106.0,白鴎高等学校,0,0,東京都台東区元浅草1-6-22,避難所,136,1.0,35.708179,139.783042,6.0,0.0,15.0,2.59,661.9833333,43991629#1
13106.0,老人福祉センター,0,0,東京都台東区東上野2-25-14,避難所,136,1.0,35.709455,139.781571,6.0,0.0,15.0,2.91,663.0666667,145581936#1
13106.0,旧下谷小学校,1,0,東京都台東区東上野4-7-9,避難所,189,3.0,35.71305933,139.7801243,6.0,0.0,15.0,2.89,663.2166667,395264627
13106.0,旧済美小学校,1,0,東京都台東区寿1-10-9,避難所,189,3.0,35.70701073,139.789032,6.0,0.0,15.0,3.2,663.2,89046669#6
13106.0,旧小島小学校,1,0,東京都台東区小島2-9-10,避難所,189,3.0,35.70607525,139.783887,6.0,0.0,15.0,2.54,661.8,586176997#2
13106.0,旧柳北小学校,1,0,東京都台東区浅草橋5-1-35,避難所,189,3.0,35.69946827,139.7823784,6.0,0.0,15.0,2.59,661.65,89934445#1
13106.0,松葉小学校,1,0,東京都台東区松が谷1-13-16,避難所,189,1.0,35.712429,139.786459,6.0,0.0,15.0,3.14,663.8833333,43699315#5
13106.0,上野小学校,1,0,東京都台東区東上野6-16-8,避難所,189,1.0,35.713568,139.783875,6.0,0.0,15.0,2.84,663.2166667,145581932#1
13106.0,浅草小学校,1,0,東京都台東区花川戸1-14-15,避難所,189,1.0,35.713568,139.799096,6.0,0.0,15.0,2.09,661.3333333,683457664#0
13106.0,浅草中学校,1,0,東京都台東区蔵前1-3-4,避難所,189,1.0,35.69993,139.789932,6.0,0.0,15.0,1.72,659.3,91006341#4
13106.0,蔵前小学校,1,0,東京都台東区蔵前4-19-11,避難所,189,1.0,35.70443,139.789292,6.0,0.0,15.0,3.22,662.9,89041314#13
13106.0,台東育英小学校,1,0,東京都台東区浅草橋2-26-8,避難所,189,1.0,35.700097,139.785515,6.0,0.0,15.0,2.33,661.1833333,772804654#0
13106.0,田原小学校,1,0,東京都台東区雷門1-5-14,避難所,189,1.0,35.710013,139.792458,6.0,0.0,15.0,1.66,659.2333333,236667144
13106.0,白鴎高等学校附属中学校,1,0,東京都台東区元浅草3-12-12,避難所,189,1.0,35.70718,139.787375,6.0,0.0,15.0,3.1,662.8,89046669#7
13106.0,平成小学校,1,0,東京都台東区台東4-21-15,避難所,189,1.0,35.706124,139.780154,6.0,0.0,15.0,2.66,662.0833333,77100166#3
13107.0,外手小学校,1,0,東京都墨田区本所2-1-16,避難所,187,1.0,35.702513,139.800597,6.0,0.0,15.0,2.19,58.45,103751347#4
13107.0,二葉小学校,1,0,東京都墨田区石原2-1-5,避難所,189,1.0,35.699236,139.80032,6.0,0.0,15.0,1.33,33.51666667,157058455#7
13108.0,ひばり幼稚園,0,1,東京都江東区東雲2-4-1-103,避難所,41,1.0,35.642187,139.797793,10.0,0.0,16.0,0.0,0.0,-44883382
13108.0,東雲第二保育園,0,1,東京都江東区東雲2-4-4-103,避難所,30,1.0,35.643326,139.799237,10.0,0.0,16.0,0.0,0.0,44883380#2
13108.0,豊洲図書館有明スポーツセンター,0,0,東京都江東区有明2-3-5,避難所,208,1.0,35.63318,139.78382,10.0,0.0,16.0,0.0,0.0,257239009#1
13108.0,東雲小学校,1,0,東京都江東区東雲2-4-11,避難所,233,1.0,35.642437,139.799209,10.0,0.0,16.0,0.0,0.0,-44883381#3
13108.0,有明小学校,1,0,東京都江東区有明2-10-1,避難所,249,3.0,35.64009122,139.796202,10.0,0.0,16.0,0.0,0.0,670065088#0
13108.0,有明中学校,1,0,東京都江東区有明2-10-1,避難所,169,3.0,35.640154,139.796202,10.0,0.0,16.0,0.0,0.0,23489088#1
13107.0,都営文花一丁目住宅一帯,0,0,東京都墨田区,避難場所,136,3.0,35.7081616,139.821461,11.0,0.0,17.0,1.99,62.1,55943333#0
13108.0,介護老人保健施設キーストーン,0,0,東京都江東区亀戸3-36-1,避難所,24,3.0,35.707275,139.819329,11.0,0.0,17.0,1.99,62.1,30919189#1
13108.0,特別養護老人ホームカメリア,0,0,東京都江東区亀戸3-36-5,避難所,58,1.0,35.707074,139.81994,11.0,0.0,17.0,1.99,62.1,-30919189#1
13108.0,母子生活支援施設パークサイド亀島,0,0,東京都江東区亀戸3-36-13,避難所,10,3.0,35.706655,139.820159,11.0,0.0,17.0,1.99,62.1,30949764#1
13107.0,押上小学校,1,0,東京都墨田区押上3-46-17,避難所,120,1.0,35.711917,139.819368,11.0,0.0,17.0,3.57,670.5833333,42305097#4
13107.0,横川小学校,1,0,東京都墨田区東駒形4-18-4,避難所,137,1.0,35.707235,139.806318,11.0,0.0,17.0,1.67,47.56666667,31047303#0
13107.0,業平小学校,1,0,東京都墨田区業平2-4-8,避難所,169,1.0,35.706374,139.811651,11.0,0.0,17.0,1.66,46.91666667,114496980#2
13107.0,錦糸小学校,1,0,東京都墨田区錦糸1-9-12,避難所,172,1.0,35.698514,139.81143,11.0,0.0,17.0,2.44,56.23333333,114496980#8
13107.0,錦糸中学校,1,0,東京都墨田区石原4-33-14,避難所,216,1.0,35.701458,139.806958,11.0,0.0,17.0,1.84,48.03333333,31047303#3
13107.0,小梅小学校,1,0,東京都墨田区向島2-4-10,避難所,195,1.0,35.714513,139.805984,11.0,0.0,17.0,0.94,21.61666667,1024115418
13107.0,文花中学校,1,0,東京都墨田区文花1-22-7,避難所,121,1.0,35.710181,139.822005,11.0,0.0,17.0,2.99,670.1166667,-43724393#0
13107.0,墨田中学校,1,0,東京都墨田区向島4-25-22,避難所,185,1.0,35.715041,139.811512,11.0,0.0,17.0,2.27,61.21666667,43051364#0
13107.0,本所中学校,1,0,東京都墨田区東駒形3-1-10,避難所,180,1.0,35.705319,139.802846,11.0,0.0,17.0,1.58,43.75,464084177#1
13107.0,柳島小学校,1,0,東京都墨田区横川5-2-30,避難所,198,1.0,35.703819,139.817762,11.0,0.0,17.0,1.9,52.43333333,157366896#0
13108.0,第一亀戸小学校,1,0,東京都江東区亀戸2-5-7,避難所,171,1.0,35.699097,139.82204,11.0,0.0,17.0,2.66,666.85,-98593789#2
13107.0,立花一丁目団地一帯,0,0,東京都墨田区,避難場所,136,3.0,35.705201,139.830036,16.0,0.0,19.0,3.19,669.9666667,793145062
13108.0,亀戸スポーツセンター,0,0,東京都江東区亀戸8-22-1,避難所,63,1.0,35.700317,139.836638,16.0,0.0,19.0,4.57,669.5833333,-55886805#1
13108.0,亀戸老人福祉センター,0,0,東京都江東区亀戸9-33-2-101,避難所,17,1.0,35.698987,139.842148,16.0,0.0,19.0,3.06,668.9333333,-99702517#0
13108.0,江東商業高等学校,0,0,東京都江東区亀戸4-50-1,避難所,32,1.0,35.702625,139.831399,16.0,0.0,19.0,3.65,668.7,793094546#1
13123.0,共育プラザ平井,0,0,東京都江戸川区平井7-21-6,避難所,136,1.0,35.714531,139.839934,16.0,0.0,19.0,4.67,671.8333333,57015985#0
13123.0,中平井コミュニティ会館,0,0,東京都江戸川区平井7-1-6,避難所,136,1.0,35.711745,139.839504,16.0,0.0,19.0,3.25,671.15,43097007
13107.0,旧立花小学校,1,0,東京都墨田区立花1-25-27,避難所,118,3.0,35.705236,139.831316,16.0,0.0,19.0,4.5,670.6,23243743#1-AddedOnRampEdge
13107.0,吾嬬第一中学校,1,0,東京都墨田区立花5-48-9,避難所,141,1.0,35.712986,139.831926,16.0,0.0,19.0,3.68,670.5666667,-58070987
13107.0,第四吾嬬小学校,1,0,東京都墨田区京島3-64-9,避難所,100,1.0,35.713403,139.825094,16.0,0.0,19.0,3.78,670.8833333,-152185736#0
13107.0,中川小学校,1,0,東京都墨田区立花5-49-4,避難所,85,1.0,35.713569,139.831371,16.0,0.0,19.0,3.68,670.5666667,58070987
13107.0,東吾嬬小学校,1,0,東京都墨田区立花4-22-11,避難所,122,1.0,35.708597,139.832038,16.0,0.0,19.0,4.53,670.8,154082984#1
13107.0,立花吾嬬の森小学校,1,0,東京都墨田区立花1-18-6,避難所,128,3.0,35.70660627,139.8294939,16.0,0.0,19.0,3.02,669.65,-43097008#11
13107.0,立花中学校,1,0,東京都墨田区立花4-30-18,避難所,113,1.0,35.709819,139.834787,16.0,0.0,19.0,3.83,670.7166667,43099711#1
13108.0,香取小学校,1,0,東京都江東区亀戸4-26-22,避難所,109,1.0,35.703958,139.826317,16.0,0.0,19.0,2.63,666.8166667,260425575#0
13108.0,水神小学校,1,0,東京都江東区亀戸5-22-22,避難所,95,1.0,35.700097,139.827928,16.0,0.0,19.0,3.26,668.1333333,98593814#1
13108.0,浅間竪川小学校,1,0,東京都江東区亀戸9-22-4,避難所,91,1.0,35.698681,139.841815,16.0,0.0,19.0,5.09,670.0666667,196629587#2
13108.0,第二亀戸中学校,1,0,東京都江東区亀戸4-51-1,避難所,93,1.0,35.702625,139.832566,16.0,0.0,19.0,4.51,669.3666667,57889595#3
13123.0,小松川三中学校,1,0,東京都江戸川区平井5-3-11,避難所,239,1.0,35.704764,139.838926,16.0,0.0,19.0,3.87,671.15,1063455941
13123.0,小松川二中学校,1,0,東京都江戸川区平井3-20-1,避難所,194,1.0,35.702458,139.842926,16.0,0.0,19.0,4.69,671.3833333,-56016112#3
13123.0,平井小学校,1,0,東京都江戸川区平井6-35-1,避難所,186,1.0,35.71068,139.842148,16.0,0.0,19.0,4.82,671.7666667,-57362799#1
13123.0,平井西小学校,1,0,東京都江戸川区平井7-22-24,避難所,150,1.0,35.714568,139.839342,16.0,0.0,19.0,4.67,671.8333333,157366923#1
13123.0,平井南小学校,1,0,東京都江戸川区平井3-3-1,避難所,244,1.0,35.702014,139.841593,16.0,0.0,19.0,2.37,665.6166667,56016110#0
13123.0,平井二小学校,1,0,東京都江戸川区平井6-1-17,避難所,130,1.0,35.706514,139.836204,16.0,0.0,19.0,4.31,671.2833333,-56241383
13123.0,小松川図書館,0,0,東京都江戸川区平井1-11-26,避難所,136,1.0,35.701477,139.850936,20.0,0.0,20.0,3.94,671.5333333,-215290851
13123.0,小松川幼稚園,0,1,東京都江戸川区平井4-1-29,避難所,15,1.0,35.703458,139.848398,20.0,0.0,20.0,4.82,671.75,56016125#3
13123.0,中央くすのきカルチャーセンター,0,0,東京都江戸川区西小松川町34-1,避難所,136,3.0,35.700816,139.864247,20.0,0.0,20.0,3.56,671.85,365706979#2
13123.0,東京都立江戸川高等学校,0,0,東京都江戸川区松島2-38-1,避難所,136,1.0,35.708264,139.865063,20.0,0.0,20.0,3.93,671.65,-47118452#0
13123.0,東京都立小松川高等学校,0,0,東京都江戸川区平井1-27-10,避難所,136,1.0,35.702625,139.85187,20.0,0.0,20.0,0.0,0.0,215290851
13123.0,平井コミュニティ会館,0,0,東京都江戸川区平井4-18-10,避難所,136,1.0,35.705569,139.847898,20.0,0.0,20.0,4.55,671.85,46771111
13123.0,三松江小学校,1,0,東京都江戸川区中央4-13-1,避難所,177,1.0,35.71032,139.867285,20.0,0.0,20.0,3.28,670.7166667,-47118453#1
13123.0,小松川一中学校,1,0,東京都江戸川区平井4-7-21,避難所,155,1.0,35.705125,139.846759,20.0,0.0,20.0,4.99,671.85,792190865#0
13123.0,小松川小学校,1,0,東京都江戸川区平井4-1-23,避難所,312,1.0,35.70368,139.847981,20.0,0.0,20.0,4.82,671.75,46771119#5
13123.0,松江二中学校,1,0,東京都江戸川区松島2-3-1,避難所,587,1.0,35.706263,139.860036,20.0,0.0,20.0,0.0,0.0,47118451#0
13123.0,西小松川小学校,1,0,東京都江戸川区松島3-30-6,避難所,177,1.0,35.711263,139.862535,20.0,0.0,20.0,3.14,671.1833333,54928199
13123.0,二松江小学校,1,0,東京都江戸川区松島2-16-20,避難所,127,1.0,35.704958,139.861536,20.0,0.0,20.0,3.76,671.9333333,-365706989
13123.0,平井東小学校,1,0,東京都江戸川区平井4-28-9,避難所,151,1.0,35.708597,139.847592,20.0,0.0,20.0,4.11,671.5833333,-46771111
13122.0,旧松南小学校,1,0,東京都葛飾区新小岩3-25-1,避難所,59,3.0,35.713564,139.865913,20.0,0.0,20.0,3.44,671.3,193610552
13123.0,勤労福祉会館,0,0,東京都江戸川区船堀4-2-5,避難所,136,1.0,35.685259,139.865233,21.0,0.0,21.0,3.55,671.55,147297543#0
13123.0,小松川さくらホール,0,0,東京都江戸川区小学校松川3-6-3,避難所,136,1.0,35.696671,139.848971,21.0,0.0,21.0,3.74,671.0333333,1021555393
13123.0,小松川二小学校,1,0,東京都江戸川区小学校松川3-6-4,避難所,296,1.0,35.697431,139.849453,21.0,0.0,21.0,3.69,671.0,-296443882
13123.0,松江一中学校,1,0,東京都江戸川区松江5-5-1,避難所,304,1.0,35.688739,139.867285,21.0,0.0,21.0,3.37,670.8666667,-1124642416#1
13123.0,船堀小学校,1,0,東京都江戸川区船堀2-22-22,避難所,196,1.0,35.682934,139.862091,21.0,0.0,21.0,3.89,671.8333333,190527310#0
13123.0,船堀二小学校,1,0,東京都江戸川区船堀4-14-4,避難所,295,1.0,35.683045,139.867674,21.0,0.0,21.0,3.79,670.9166667,147297552
13123.0,東小松川小学校,1,0,東京都江戸川区東小松川3-27-1,避難所,189,1.0,35.693155,139.865702,21.0,0.0,21.0,4.1,671.8833333,-136550178#1
13123.0,スポーツセンター,0,0,東京都江戸川区西葛西4-2-20,避難所,136,1.0,35.668008,139.862564,22.0,0.0,22.0,3.3,667.75,-199783476
13123.0,葛西くすのきカルチャーセンター,0,0,東京都江戸川区宇喜田町191,避難所,136,3.0,35.67354987,139.8618563,22.0,0.0,22.0,2.91,666.5,-190527312#0
13123.0,共育プラザ葛西,0,0,東京都江戸川区宇喜田町175,避難所,136,1.0,35.673468,139.860724,22.0,0.0,22.0,3.0,666.6833333,190527312#0
13123.0,教育研究所西葛西教育相談室,0,0,東京都江戸川区西葛西3-11-4,避難所,136,3.0,35.667533,139.857851,22.0,0.0,22.0,2.98,666.2666667,151560757#1
13123.0,西葛西図書館,0,0,東京都江戸川区西葛西5-10-47,避難所,136,1.0,35.664839,139.862892,22.0,0.0,22.0,2.88,665.7166667,72843607#4
13123.0,船堀幼稚園,0,1,東京都江戸川区船堀6-11-39,避難所,15,1.0,35.678296,139.866202,22.0,0.0,22.0,2.04,663.1166667,1057198635#1
13123.0,北葛西コミュニティ会館,0,0,東京都江戸川区北葛西2-11-39,避難所,136,1.0,35.673119,139.857187,22.0,0.0,22.0,3.87,669.0166667,199783479
13123.0,宇喜田小学校,1,0,東京都江戸川区北葛西5-13-1,避難所,225,1.0,35.674657,139.865286,22.0,0.0,22.0,3.34,668.5166667,151560672#2
13123.0,葛西二中学校,1,0,東京都江戸川区宇喜田町1085,避難所,203,1.0,35.679212,139.861842,22.0,0.0,22.0,3.04,668.2,-224195459#3
13123.0,五葛西小学校,1,0,東京都江戸川区北葛西2-13-33,避難所,196,1.0,35.674823,139.855703,22.0,0.0,22.0,4.08,669.1333333,60185717#1
13123.0,三葛西小学校,1,0,東京都江戸川区北葛西4-2-19,避難所,201,1.0,35.671019,139.861453,22.0,0.0,22.0,3.28,667.7666667,579776871
13123.0,清新一中学校,1,0,東京都江戸川区清新町1-5-14,避難所,431,1.0,35.663519,139.851593,22.0,0.0,22.0,0.0,0.0,432603494#0
13123.0,西葛西小学校,1,0,東京都江戸川区西葛西3-9-44,避難所,346,1.0,35.66813,139.857537,22.0,0.0,22.0,2.98,666.2666667,151560757#0
13123.0,西葛西中学校,1,0,東京都江戸川区西葛西5-10-18,避難所,244,1.0,35.66588,139.862814,22.0,0.0,22.0,3.26,666.7666667,148940706#0
13123.0,六葛西小学校,1,0,東京都江戸川区西葛西4-5-1,避難所,199,1.0,35.668102,139.864842,22.0,0.0,22.0,3.59,668.1833333,1066890910#1
13123.0,新田コミュニティ会館,0,0,東京都江戸川区中学校葛西7-17-1,避難所,136,1.0,35.654646,139.866417,23.0,0.0,23.0,1.08,658.2166667,44886227#1
13123.0,清新町コミュニティ会館,0,0,東京都江戸川区清新町1-2-2,避難所,136,1.0,35.658728,139.855988,23.0,0.0,23.0,0.0,0.0,-44886285#7
13123.0,東京都立紅葉川高等学校,0,0,東京都江戸川区臨海町2-1-1,避難所,136,1.0,35.652798,139.859037,23.0,0.0,23.0,0.0,0.0,44885799#0
13123.0,臨海町コミュニティ会館,0,0,東京都江戸川区臨海町2-2-9,避難所,136,1.0,35.652785,139.85996,23.0,0.0,23.0,0.0,0.0,-44885799#2
13123.0,葛西三中学校,1,0,東京都江戸川区中葛西6-6-13,避難所,335,1.0,35.659687,139.865397,23.0,0.0,23.0,2.75,664.45,47113644#3
13123.0,七葛西小学校,1,0,東京都江戸川区西葛西7-8-1,避難所,195,1.0,35.659992,139.859731,23.0,0.0,23.0,3.09,665.2666667,-47113642#2
13123.0,新田小学校,1,0,東京都江戸川区西葛西8-16-1,避難所,291,1.0,35.654548,139.862981,23.0,0.0,23.0,1.57,659.9333333,-47113650
13123.0,清新一小学校,1,0,東京都江戸川区清新町1-4-19,避難所,484,1.0,35.661853,139.852759,23.0,0.0,23.0,0.0,0.0,44885796#1
13123.0,清新三小学校,1,0,東京都江戸川区清新町1-1-38,避難所,484,1.0,35.657492,139.852843,23.0,0.0,23.0,0.0,0.0,44886285#0
13123.0,清新二小学校,1,0,東京都江戸川区清新町2-10-1,避難所,313,1.0,35.65502,139.857593,23.0,0.0,23.0,0.37,0.0,-44886287#1
13123.0,清新二中学校,1,0,東京都江戸川区清新町2-1-2,避難所,571,1.0,35.656853,139.852426,23.0,0.0,23.0,0.0,0.0,-44886285#1
13123.0,臨海小学校,1,0,東京都江戸川区臨海町2-2-11,避難所,645,1.0,35.651771,139.860065,23.0,0.0,23.0,0.0,0.0,1237754031
,夢の島競技場,0,0,,,320,,35.64866261647408,139.8235916742852,,,,0.0,0.0,161392517
